%time,field.time_from_start,field.base.pose.position.x,field.base.pose.position.y,field.base.pose.position.z,field.base.pose.orientation.x,field.base.pose.orientation.y,field.base.pose.orientation.z,field.base.pose.orientation.w,field.base.twist.linear.x,field.base.twist.linear.y,field.base.twist.linear.z,field.base.twist.angular.x,field.base.twist.angular.y,field.base.twist.angular.z,field.base.accel.linear.x,field.base.accel.linear.y,field.base.accel.linear.z,field.base.accel.angular.x,field.base.accel.angular.y,field.base.accel.angular.z,field.ee_motion0.pos.x,field.ee_motion0.pos.y,field.ee_motion0.pos.z,field.ee_motion0.vel.x,field.ee_motion0.vel.y,field.ee_motion0.vel.z,field.ee_motion0.acc.x,field.ee_motion0.acc.y,field.ee_motion0.acc.z,field.ee_motion1.pos.x,field.ee_motion1.pos.y,field.ee_motion1.pos.z,field.ee_motion1.vel.x,field.ee_motion1.vel.y,field.ee_motion1.vel.z,field.ee_motion1.acc.x,field.ee_motion1.acc.y,field.ee_motion1.acc.z,field.ee_motion2.pos.x,field.ee_motion2.pos.y,field.ee_motion2.pos.z,field.ee_motion2.vel.x,field.ee_motion2.vel.y,field.ee_motion2.vel.z,field.ee_motion2.acc.x,field.ee_motion2.acc.y,field.ee_motion2.acc.z,field.ee_motion3.pos.x,field.ee_motion3.pos.y,field.ee_motion3.pos.z,field.ee_motion3.vel.x,field.ee_motion3.vel.y,field.ee_motion3.vel.z,field.ee_motion3.acc.x,field.ee_motion3.acc.y,field.ee_motion3.acc.z,field.ee_forces0.x,field.ee_forces0.y,field.ee_forces0.z,field.ee_forces1.x,field.ee_forces1.y,field.ee_forces1.z,field.ee_forces2.x,field.ee_forces2.y,field.ee_forces2.z,field.ee_forces3.x,field.ee_forces3.y,field.ee_forces3.z,field.ee_contact0,field.ee_contact1,field.ee_contact2,field.ee_contact3
1000,0,0.0,0.0,0.21,0.0,0.0,0.0,1.0,0.0,0.0,0.0,0.0,0.0,0.0,10.811298277868906,-0.6193779069457955,29.870640142461387,0.3434777932744031,14.17894217430962,-12.475589974603734,0.213,0.15,0.0,0.0,0.0,0.0,0.0,0.0,0.0,0.213,-0.15,0.0,0.0,0.0,0.0,0.0,0.0,0.0,-0.213,0.15,0.0,0.0,0.0,0.0,0.0,0.0,0.0,-0.213,-0.15,0.0,0.0,0.0,0.0,0.0,0.0,0.0,6.334358012954587,1.148654655672889,17.318923908088834,2.1665786152376154,2.328915178804111,18.155092036958127,14.323478761877022,-15.338848219061127,33.37178994845499,4.203830307247998,10.312833618617168,30.347419464559287,1,1,1,1
10001000,10000000,0.000510189037717028,-2.7854137291920706e-05,0.21139414396299064,6.380400420426822e-06,0.0003251405373384984,-0.00028471637786595566,0.9999999065897485,0.0990002199257639,-0.005259351652847234,0.26888998818488824,0.002126025000547398,0.12418950653524104,-0.10845199805945388,8.988745707283874,-0.43249242362365126,23.90735749451627,0.0871217070579826,10.65892644883256,-9.214841529033615,0.213,0.15,0.0,0.0,0.0,0.0,0.0,0.0,0.0,0.213,-0.15,0.0,0.0,0.0,0.0,0.0,0.0,0.0,-0.213,0.15,0.0,0.0,0.0,0.0,0.0,0.0,0.0,-0.213,-0.15,0.0,0.0,0.0,0.0,0.0,0.0,0.0,5.499636129333381,6.092030688227354,-20.8099892052829,14.503261370197155,1.8734591444067699,11.995805025217912,14.113670078626543,-11.612909738414475,55.86021713285408,-31.28673842802949,58.380129231373395,17.09766306337659,1,1,1,1
20001000,20000000,0.0019192526461624436,-9.895751694620653e-05,0.21517902367543293,1.717375334643561e-05,0.001183227214404888,-0.0010301737961622146,0.9999987692094281,0.17977491414567748,-0.008649848472473026,0.4781471498903253,0.001790894630716681,0.2131807072615878,-0.1842940453288237,7.166193136698842,-0.24560694030150693,17.944074846571148,-0.15431308727372375,7.139536270552772,-5.953289877444492,0.213,0.15,0.0,0.0,0.0,0.0,0.0,0.0,0.0,0.213,-0.15,0.0,0.0,0.0,0.0,0.0,0.0,0.0,-0.213,0.15,0.0,0.0,0.0,0.0,0.0,0.0,0.0,-0.213,-0.15,0.0,0.0,0.0,0.0,0.0,0.0,0.0,6.882851638853843,11.318577306428566,-47.3164880938191,25.334850973667045,1.4433086866396279,6.508220053023452,13.568590474328978,-5.539578801093803,109.62452480794448,-60.53750877494807,98.16252956129513,6.547264102685535,1,1,1,1
30001000,30000000,0.004044935568277743,-0.00019462159063064307,0.2207583108725323,2.0178641335967594e-05,0.0023982803959388247,-0.002073301045684131,0.9999949746207423,0.2423240826597407,-0.010171490458877372,0.6277714851163112,-0.0010038128554409552,0.2669862003238329,-0.2275104300778377,5.3436405661138116,-0.058721456979362596,11.98079219862603,-0.40843763425362895,3.6219123444310233,-2.6895609381875505,0.213,0.15,0.0,0.0,0.0,0.0,0.0,0.0,0.0,0.213,-0.15,0.0,0.0,0.0,0.0,0.0,0.0,0.0,-0.213,0.15,0.0,0.0,0.0,0.0,0.0,0.0,0.0,-0.213,-0.15,0.0,0.0,0.0,0.0,0.0,0.0,0.0,10.015838789031227,16.59922616945574,-63.51374815150062,34.73090753095964,1.0392394032387056,1.663424321607803,12.814759617165128,-4.77558216402803,174.11325215656586,-83.97127965563685,130.20721467167098,-1.5105080945452634,1,1,1,1
40001000,40000000,0.006704982547004424,-0.00029615781001301577,0.2275356772894943,2.5832989433785458e-06,0.003794382114220715,-0.003250944446029542,0.9999875169310398,0.2866477254679537,-0.009824277612060279,0.7177629938628458,-0.00647516903936757,0.2856262303889289,-0.23807655541346487,3.52108799552878,0.12816402634278168,6.017509550680913,-0.6913732000813619,0.10644415834502972,0.5767482334659647,0.213,0.15,0.0,0.0,0.0,0.0,0.0,0.0,0.0,0.213,-0.15,0.0,0.0,0.0,0.0,0.0,0.0,0.0,-0.213,0.15,0.0,0.0,0.0,0.0,0.0,0.0,0.0,-0.213,-0.15,0.0,0.0,0.0,0.0,0.0,0.0,0.0,14.430431827380783,21.704908936488103,-70.71494477230834,42.76099114738728,0.6620268919400241,-2.567494967795985,11.978697175315798,-16.9776465841461,228.7749383615578,-102.01084999222489,155.0613646257896,-7.282384205347215,1,1,1,1
50001000,50000000,0.009717138325283986,-0.0003848776267611105,0.2349147946615244,-4.985285014763955e-05,0.0051956841575383035,-0.004399867719080776,0.9999768215038202,0.31274584257031635,-0.007608209932021735,0.7481216761299294,-0.014944096779316362,0.2691209283529221,-0.21596865066465815,1.6985354249437474,0.31504950966492606,0.05422690273578823,-1.0077734687852484,-3.4073036149587295,3.8450694625523187,0.213,0.15,0.0,0.0,0.0,0.0,0.0,0.0,0.0,0.213,-0.15,0.0,0.0,0.0,0.0,0.0,0.0,0.0,-0.213,0.15,0.0,0.0,0.0,0.0,0.0,0.0,0.0,-0.213,-0.15,0.0,0.0,0.0,0.0,0.0,0.0,0.0,19.658465001417756,26.406557266704862,-70.23325335022304,49.49466192826232,0.31244675047960474,-6.213450613954849,11.186922816961788,-49.80249881837693,253.0581226057601,-115.0790187068414,173.2721594869396,-10.975094906751687,1,1,1,1
60001000,60000000,0.01289914764605792,-0.0004420924925427126,0.24229933472382806,-0.00015304419290225403,0.0064263750074192,-0.0053568042513104834,0.9999649908521558,0.32061843396682865,-0.0035232874187617544,0.7188475319175616,-0.02672083659403915,0.21748127074968318,-0.1611734819031438,-0.12401714564128419,0.5019349929870703,-5.909055745209326,-1.3508525314768953,-6.92075611275614,7.113863611661214,0.213,0.15,0.0,0.0,0.0,0.0,0.0,0.0,0.0,0.213,-0.15,0.0,0.0,0.0,0.0,0.0,0.0,0.0,-0.213,0.15,0.0,0.0,0.0,0.0,0.0,0.0,0.0,-0.213,-0.15,0.0,0.0,0.0,0.0,0.0,0.0,0.0,25.231772558657415,30.47510281928525,-63.38184927922565,55.00147997889711,-0.008725423406531436,-9.303355415635744,10.503798966412456,-110.3012761386477,226.90249995601675,-123.59858472161537,185.38677931840957,-12.795370875790105,1,1,1,1
70001000,70000000,0.016068755252267725,-0.0004491138590256073,0.24909296921161078,-0.0003242511937524659,0.007310597199767823,-0.005958553307317899,0.9999554718447367,0.31026549965749073,0.002430489927719666,0.6299405612257429,-0.04199064892213641,0.13069836771548216,-0.07369806049534923,-1.9465697162263158,0.6888204763092146,-11.872338393154447,-1.7024009563332454,-10.436480226878736,10.380620784431962,0.213,0.15,0.0,0.0,0.0,0.0,0.0,0.0,0.0,0.213,-0.15,0.0,0.0,0.0,0.0,0.0,0.0,0.0,-0.213,0.15,0.0,0.0,0.0,0.0,0.0,0.0,0.0,-0.213,-0.15,0.0,0.0,0.0,0.0,0.0,0.0,0.0,30.682188746614987,33.68147725340846,-51.47390795329696,59.351005404604,-0.30071403198236357,-11.86612217160561,7.986983065830338,-177.93469212557943,158.73388482914072,-127.99234695867592,191.95240418348817,-12.949942789493845,1,1,1,1
80001000,80000000,0.019043705886854896,-0.00038725317787758067,0.2546993698600781,-0.0005811800794628956,0.007672307109530986,-0.006042112188417106,0.9999521442617316,0.28168703964230235,0.010253122107422533,0.48140076405447263,-0.060699536499620205,0.008731729679978624,0.04642064952615083,-3.7691222868113456,0.8757059596313589,-17.83562104109956,-2.0327703571565556,-13.958219622799216,13.64186030516348,0.213,0.15,0.0,0.0,0.0,0.0,0.0,0.0,0.0,0.213,-0.15,0.0,0.0,0.0,0.0,0.0,0.0,0.0,-0.213,0.15,0.0,0.0,0.0,0.0,0.0,0.0,0.0,-0.213,-0.15,0.0,0.0,0.0,0.0,0.0,0.0,0.0,35.54154781280574,35.79661222825376,-35.822604766417896,62.61279831069537,-0.5627434775118705,-13.930663680631387,3.600671613800763,-228.2741094597152,77.20362943506424,-128.68310434015217,193.516214145464,-11.6455413248943,1,1,1,1
90001000,90000000,0.02164174429276093,-0.00023782190076641853,0.2585222084044354,-0.0009405087523407514,0.007335075049912648,-0.005444842260210042,0.9999578320159607,0.23488305392126385,0.01994460912034684,0.27322814040375176,-0.08243957010020074,-0.1485017985306436,0.19910602157762183,-5.591674857396379,1.0625914429535035,-23.798903689044682,-2.3008061944635565,-17.490708830400344,16.8931302091643,0.213,0.15,0.0,0.0,0.0,0.0,0.0,0.0,0.0,0.213,-0.15,0.0,0.0,0.0,0.0,0.0,0.0,0.0,-0.213,0.15,0.0,0.0,0.0,0.0,0.0,0.0,0.0,-0.213,-0.15,0.0,0.0,0.0,0.0,0.0,0.0,0.0,39.341684004744934,36.5914394030003,-17.74111511256922,64.85641880248352,-0.7940381622590306,-15.525892741480037,-1.373682628894783,-245.93841241067784,6.502493478652042,-126.09365578817324,190.62538926762562,-9.088897159022839,1,1,1,1
100001000,100000000,0.023680615212927338,1.7868520640093848e-05,0.2599651565798883,-0.001415835599776103,0.0061218349477355286,-0.004004678188027638,0.9999722401642145,0.1698535424943748,0.03150495096649259,0.005422690273579445,-0.10633320667623321,-0.34113570128074044,0.38423204925088433,-7.414227427981407,1.2494769262756473,-29.762186336989796,-2.4537108956871823,-21.039160876014762,20.129006349577942,0.213,0.15,0.0,0.0,0.0,0.0,0.0,0.0,0.0,0.213,-0.15,0.0,0.0,0.0,0.0,0.0,0.0,0.0,-0.213,0.15,0.0,0.0,0.0,0.0,0.0,0.0,0.0,-0.213,-0.15,0.0,0.0,0.0,0.0,0.0,0.0,0.0,41.61443156994781,35.83689043682736,1.457385614268162,66.15142698528084,-0.9938224884878235,-16.68072215291849,-5.654626901474801,-215.54648524808977,-29.17876333523094,-120.6468002248682,183.82710961326177,-5.486740968910908,1,1,1,1
110001000,110000000,0.025030627917899693,0.0003872574499904268,0.25861626872457927,-0.002000962093033889,0.003925780382201817,-0.001633081749281272,0.9999889586605909,0.10236786363885939,0.04155939223660826,-0.26670080545314523,-0.12264766818643726,-0.5267340859174193,0.5579077856632061,-6.0829083439230045,0.7614113269218339,-24.66251280800379,-0.808744679351717,-16.07737492195343,14.608470558115528,0.213,0.15,0.0,0.0,0.0,0.0,0.0,0.0,0.0,0.213,-0.15,0.0,0.0,0.0,0.0,0.0,0.0,0.0,-0.213,0.15,0.0,0.0,0.0,0.0,0.0,0.0,0.0,-0.213,-0.15,0.0,0.0,0.0,0.0,0.0,0.0,0.0,41.89162475592963,33.303896988914126,20.459722020113475,66.56738296439967,-1.1613208584622285,-17.424064713713683,-7.960708443157813,-121.71721224157392,-5.649381301720041,-112.76533657236614,173.66855524566094,-1.045803431589846,1,1,1,1
120001000,120000000,0.025772349788479757,0.0008327875120329432,0.25480112958846995,-0.0026282222595852963,0.0009243894590360568,0.0014672640882508622,0.9999950425317005,0.048195375615914846,0.046733177504929266,-0.48782756588649606,-0.12264034456290232,-0.6625923134308189,0.6764757186287722,-4.751589260665907,0.2733457267423687,-19.562839278666388,0.7974280172358407,-11.0886433890537,9.109984358354781,0.213,0.15,0.0,0.0,0.0,0.0,0.0,0.0,0.0,0.213,-0.15,0.0,0.0,0.0,0.0,0.0,0.0,0.0,-0.213,0.15,0.0,0.0,0.0,0.0,0.0,0.0,0.0,-0.213,-0.15,0.0,0.0,0.0,0.0,0.0,0.0,0.0,39.70509781020559,28.76339071843985,37.95271871098578,66.17384684515233,-1.2957576744462234,-17.7848332226326,-7.2753558468047,36.50378653191209,88.2021246294502,-102.87206375279622,160.69690622811214,4.0271847759089,1,1,1,1
130001000,130000000,0.02603891273299323,0.001305652146749696,0.24902970652449394,-0.0032172391476220025,-0.002632560612382568,0.005021773507020705,0.9999787501680889,0.007336078425541306,0.04702630677145561,-0.6579575910264728,-0.1070515774288485,-0.7483823235846653,0.7402211072037922,-3.420270177408809,-0.21471987343709653,-14.463165749328985,2.2987524063288323,-6.062833657157879,3.6453603134409156,0.213,0.15,0.0,0.0,0.0,0.0,0.0,0.0,0.0,0.213,-0.15,0.0,0.0,0.0,0.0,0.0,0.0,0.0,-0.213,0.15,0.0,0.0,0.0,0.0,0.0,0.0,0.0,-0.213,-0.15,0.0,0.0,0.0,0.0,0.0,0.0,0.0,34.58668498029104,21.9863032845837,52.623200292904244,65.04037873285122,-1.3963573387037878,-17.791940478442136,-5.597962641643461,126.53512758338702,137.9193793275935,-91.38978068828743,145.45934262390344,9.525492976554006,1,1,1,1
140001000,140000000,0.025963448659765822,0.0017570447941227401,0.24181196688558507,-0.0036928947177630694,-0.00649359118542442,0.008757272063576429,0.999933750799584,-0.0202100279322613,0.042438780036187326,-0.7770908808730758,-0.07714865409567688,-0.783721473471844,0.7495131206797918,-2.0889510941517093,-0.7027854736165626,-9.363492219991578,3.655984253710251,-0.9990454048967935,-1.7804333298452626,0.213,0.15,0.0,0.0,0.0,0.0,0.0,0.0,0.0,0.213,-0.15,0.0,0.0,0.0,0.0,0.0,0.0,0.0,-0.213,0.15,0.0,0.0,0.0,0.0,0.0,0.0,0.0,-0.213,-0.15,0.0,0.0,0.0,0.0,0.0,0.0,0.0,26.068220513701135,12.74356634652493,63.15799137188799,63.23653873280868,-1.4623442534989002,-17.474299279909285,-3.811926461889757,137.34640228463127,130.33626992550572,-78.741286300969,128.50304449632358,15.24239049331402,1,1,1,1
150001000,150000000,0.025679089477123242,0.0021381588941341277,0.233657878024677,-0.003987344421641494,-0.010405543219670995,0.012402265792976014,0.9998609951178049,-0.034442943457492936,0.03297059729912436,-0.8452274354263047,-0.03445465070090997,-0.7682602679953315,0.7047363671965959,-0.7576320108946097,-1.1908510737960283,-4.263818690654169,4.857326957089803,4.095404594839456,-7.169277199875469,0.213,0.15,0.0,0.0,0.0,0.0,0.0,0.0,0.0,0.213,-0.15,0.0,0.0,0.0,0.0,0.0,0.0,0.0,-0.213,0.15,0.0,0.0,0.0,0.0,0.0,0.0,0.0,-0.213,-0.15,0.0,0.0,0.0,0.0,0.0,0.0,0.0,13.681538657951194,0.8061115634427267,68.2439165539563,60.83188695033702,-1.4929428210955409,-16.860822425800944,-2.1455625602536896,100.0214298079623,89.52411302238357,-65.3493795129699,110.37519190866146,20.971146649157546,1,1,1,1
160001000,160000000,0.0253189670933912,0.002400187886765913,0.22507740729470355,-0.004040655015419716,-0.014114011115699009,0.015686905408456714,0.9997691677562268,-0.035362668150153515,0.018621758560266724,-0.8623672546861592,0.019529512593043717,-0.7017577166302073,0.6062224163984599,0.5736870723624898,-1.6789166739754942,0.8358548386832396,5.919114175573616,9.20637315608702,-12.529896927232125,0.213,0.15,0.0,0.0,0.0,0.0,0.0,0.0,0.0,0.213,-0.15,0.0,0.0,0.0,0.0,0.0,0.0,0.0,-0.213,0.15,0.0,0.0,0.0,0.0,0.0,0.0,0.0,-0.213,-0.15,0.0,0.0,0.0,0.0,0.0,0.0,0.0,-1.8349549693375866,-13.037363144754485,67.2656348659911,57.89598349074868,-1.487377443757686,-15.9804227148841,-0.8271861894453618,45.6440293256976,39.55422521742355,-51.63685924641953,91.62296492420569,26.50503076705317,1,1,1,1
170001000,170000000,0.025016213416895403,0.002494325212000147,0.2165805220485984,-0.003800042949005162,-0.017364120580687415,0.018342578377483817,0.9996737451831527,-0.02296920201024316,-0.0006077361803855513,-0.8285103386526398,0.08360916974805913,-0.5841426742186955,0.4541814050019467,1.9050061556195894,-2.1669822741549605,5.935528368020648,6.886324802188084,14.314229679152197,-17.877851013653157,0.213,0.15,0.0,0.0,0.0,0.0,0.0,0.0,0.0,0.213,-0.15,0.0,0.0,0.0,0.0,0.0,0.0,0.0,-0.213,0.15,0.0,0.0,0.0,0.0,0.0,0.0,0.0,-0.213,-0.15,0.0,0.0,0.0,0.0,0.0,0.0,0.0,-13.648642815584754,-22.96792576687301,63.774947730994256,54.498388459355866,-1.4448725237493176,-14.86201294592566,-0.08511260217487493,5.298020010155369,4.49792310982275,-38.026524423446574,72.79354360624427,31.637312169969647,1,1,1,1
180001000,180000000,0.024903960355961575,0.002371764309818886,0.20867718963929532,-0.003217698949711908,-0.01990158411593509,0.020101065371833943,0.9995946781241197,0.002737454962238317,-0.0247178869228325,-0.743656687325746,0.15718354047111263,-0.4155639276557743,0.24863378008955625,3.236325238876689,-2.6550478743344263,11.035201897358057,7.832746211700952,19.39469090804097,-23.23551697233948,0.213,0.15,0.0,0.0,0.0,0.0,0.0,0.0,0.0,0.213,-0.15,0.0,0.0,0.0,0.0,0.0,0.0,0.0,-0.21216481086939132,0.14990355081271461,0.0003012346631433708,0.2934398386652121,-0.03388697590198986,0.10553701882132965,49.43764453345786,-5.7091507203112055,17.615812222776725,-0.213,-0.15,0.0,0.0,0.0,0.0,0.0,0.0,0.0,-21.116749880203866,-28.560825074531653,58.750512368162724,50.70866196147108,-1.3646524633344121,-13.534505917692623,0.0,0.0,0.0,-24.941173966180543,54.43410801806681,36.16126018087536,1,1,0,1
190001000,190000000,0.02511533981891541,0.0019836986202041804,0.20187737741972803,-0.0022471994513166,-0.02147399200770615,0.02069322167796804,0.9995527041324361,0.04175730276729073,-0.05370869366707415,-0.6078063007054784,0.24053255107285168,-0.19643639641718616,-0.010657855033856805,4.567644322133789,-3.143113474513892,16.134875426695466,8.860622320519582,24.4186857504302,-28.632086657756055,0.213,0.15,0.0,0.0,0.0,0.0,0.0,0.0,0.0,0.213,-0.15,0.0,0.0,0.0,0.0,0.0,0.0,0.0,-0.20694587846270224,0.14930085883601923,0.0021601803834354243,0.7316118220090094,-0.08448788760307521,0.2585306173310726,38.19675213530151,-4.411031619905854,12.982907479171832,-0.213,-0.15,0.0,0.0,0.0,0.0,0.0,0.0,0.0,-24.84697690736458,-30.458626992453816,52.5206333778329,46.59636410240651,-1.2459416647769483,-12.02681442895188,0.0,0.0,0.0,-12.803606796749932,37.09183822296086,39.87014412273916,1,1,0,1
200001000,200000000,0.025783483714082626,0.0012813215831380849,0.19669105274283033,-0.0008385263413324193,-0.021832343086567473,0.019847188347505648,0.9995642724625685,0.09409034140491412,-0.08758015641311043,-0.4209591787918363,0.3350968765260252,0.07250455413111268,-0.3242569406270125,5.898963405390888,-3.6311790746933577,21.234548956032874,10.099619934149816,29.350794372089773,-34.103581488964345,0.213,0.15,0.0,0.0,0.0,0.0,0.0,0.0,0.0,0.213,-0.15,0.0,0.0,0.0,0.0,0.0,0.0,0.0,-0.197907270842483,0.14825706369733327,0.005317416851644664,1.057374881371243,-0.122107608300107,0.3651951684047665,26.955859737145147,-3.1129125195005014,8.350002735566939,-0.213,-0.15,0.0,0.0,0.0,0.0,0.0,0.0,0.0,-25.44702464123661,-29.303897445362892,45.4136153603411,42.23105498747471,-1.0879645303409093,-10.367851278470425,0.0,0.0,0.0,-2.036621837284656,21.31391428421614,42.55723331852931,1,1,0,1
210001000,210000000,0.02701288976228486,0.00023626825909077486,0.19349991230751795,0.0010329795545170046,-0.020814677373312065,0.01739027842539786,0.999631562314522,0.15114631462100156,-0.120199789019132,-0.22159651777680592,0.422060988275064,0.340683301688899,-0.6310816463302616,5.512231237249426,-2.8927474474362738,18.63798324965167,7.320231022800644,24.28340580451521,-27.26786524275735,0.213,0.15,0.0,0.0,0.0,0.0,0.0,0.0,0.0,0.213,-0.15,0.0,0.0,0.0,0.0,0.0,0.0,0.0,-0.18617307724854923,0.14690197730669724,0.009309653593410598,1.2707290167519125,-0.14674613799308528,0.4255306720424115,15.714967338988785,-1.8147934190951487,3.7170979919620457,-0.213,-0.15,0.0,0.0,0.0,0.0,0.0,0.0,0.0,-23.52459382598966,-25.739202357982265,37.757762916023694,37.6822947219879,-0.8899454622902685,-8.586529265015123,0.0,0.0,0.0,6.936981990086906,7.64751626512043,44.01579709121489,1,1,0,1
220001000,220000000,0.028793518934212038,-0.001098059809700164,0.19217257019717077,0.0032634491658641556,-0.01859054978345103,0.01356132936158427,0.9997298793695412,0.20433496614990276,-0.145435105361836,-0.0481995137988027,0.48177198367695134,0.5582608756014104,-0.8696340116255172,5.1254990685308055,-2.1543158211045124,16.041417545948942,4.623260838939756,19.241832607476454,-20.438598581403003,0.213,0.15,0.0,0.0,0.0,0.0,0.0,0.0,0.0,0.213,-0.15,0.0,0.0,0.0,0.0,0.0,0.0,0.0,-0.17286738692071657,0.14536541157415173,0.013673600134372736,1.371674228151019,-0.15840347668201005,0.4395371282440075,4.474074940832423,-0.5166743186897964,-0.9158067516428474,-0.213,-0.15,0.0,0.0,0.0,0.0,0.0,0.0,0.0,-19.687385205793383,-20.407107655035343,29.881380645217007,33.01964341125847,-0.6511088628890083,-6.711761187352998,0.0,0.0,0.0,13.694405763235181,-3.360175771037575,44.039104763764215,1,1,0,1
230001000,230000000,0.0310866980129923,-0.0026478194606015548,0.19244936984141847,0.005718760461813495,-0.01541007716740438,0.008703115981115655,0.9998270255762715,0.25365629599161776,-0.1632861054412223,0.09923183314217322,0.5143462321764306,0.7258024395463897,-1.0396890607552873,4.738766899812184,-1.415884194772751,13.444851842246214,1.8735985129975288,14.284414614402579,-13.560483997875577,0.213,0.15,0.0,0.0,0.0,0.0,0.0,0.0,0.0,0.213,-0.15,0.0,0.0,0.0,0.0,0.0,0.0,0.0,-0.15911428909880068,0.14377717840973722,0.01794596600017059,1.3602105155685618,-0.15707962436688125,0.4072145370095547,-6.766817457323931,0.7814447817155559,-5.548711495247744,-0.213,-0.15,0.0,0.0,0.0,0.0,0.0,0.0,0.0,-14.543099524817471,-13.950179261245509,22.112773148257418,28.312661160598765,-0.370679134401106,-4.772459844250996,0.0,0.0,0.0,17.812850560031166,-11.161981760968501,42.42042565914568,1,1,0,1
240001000,240000000,0.03385375378175378,-0.004339167530980221,0.19407065466989082,0.008262618753588937,-0.01151894711709801,0.0031614814633489923,0.9998945184486228,0.2991103041461466,-0.173752789257291,0.22069752304612184,0.5187429970959401,0.8443662124813816,-1.1405467487978087,4.352034731093562,-0.67745256844099,10.848286138543486,-1.0250821388892986,9.451497082642248,-6.593806908567135,0.213,0.15,0.0,0.0,0.0,0.0,0.0,0.0,0.0,0.213,-0.15,0.0,0.0,0.0,0.0,0.0,0.0,0.0,-0.14603787302261723,0.14226708972349428,0.021663460716443667,1.23633787900454,-0.14277458104769886,0.3285628983390525,-18.007709855480293,2.0795638821209073,-10.181616238852637,-0.213,-0.15,0.0,0.0,0.0,0.0,0.0,0.0,0.0,-8.699437527231666,-7.010983101336166,14.780245025481229,23.630908075321116,-0.047880679090543055,-2.7975380344760055,0.0,0.0,0.0,18.869517458345854,-15.210721641384225,38.95302910032825,1,1,0,1
250001000,250000000,0.03705601302362461,-0.00609826085820298,0.19677676811221748,0.010751574042558863,-0.007156588582067234,-0.0027128147874592875,0.9999129099733653,0.340696990613489,-0.17683515681004208,0.3161975559130429,0.49314917784347645,0.915322274103777,-1.1711879085140038,3.9653025623749425,0.060979057890769184,8.251720434840765,-4.131188529298273,4.7648631540370765,0.48553530255778454,0.213,0.15,0.0,0.0,0.0,0.0,0.0,0.0,0.0,0.213,-0.15,0.0,0.0,0.0,0.0,0.0,0.0,0.0,-0.13476222793198178,0.14096495742546344,0.02436279380883148,1.0000563184589555,-0.11548834672446312,0.20358221223250172,-29.248602253636626,3.377682982526257,-14.81452098245752,-0.213,-0.15,0.0,0.0,0.0,0.0,0.0,0.0,0.0,-2.7640999572056018,-0.23208510003073002,8.21210087722487,19.04394426073779,0.3180621007787061,-0.8159085567950228,0.0,0.0,0.0,16.441607536050242,-14.95921534899685,33.43018441028073,1,1,0,1
260001000,260000000,0.04065480252173294,-0.007851256279636669,0.20030805359802825,0.013031859657894013,-0.0025552682726211876,-0.008563275315507393,0.9998751479828782,0.3784163553936453,-0.1725332080994756,0.38573193174293685,0.43534895232444526,0.9401576113593073,-1.130430600952677,3.5785703936563213,0.7994106842225306,5.655154731138037,-7.467271408012681,0.22569333721765755,7.6859868197569625,0.213,0.15,0.0,0.0,0.0,0.0,0.0,0.0,0.0,0.213,-0.15,0.0,0.0,0.0,0.0,0.0,0.0,0.0,-0.12641144306670998,0.14000059342568522,0.02558067480297354,0.6513658339318082,-0.07522092139717385,0.03227247868990224,-40.48949465179299,4.67580208293161,-19.447425726062416,-0.213,-0.15,0.0,0.0,0.0,0.0,0.0,0.0,0.0,2.6552124410910523,5.743948817947512,2.7366453038245666,14.621329822161272,0.7279248029426575,1.1435157900250488,0.0,0.0,0.0,11.65178570298497,-11.665613560623154,26.651114436730317,1,1,0,1
270001000,270000000,0.0446114490592069,-0.009524310632648102,0.2044048545569528,0.014937970367020418,0.0020597919197994094,-0.01402777278894431,0.9997878954504015,0.41226839848661545,-0.1608469431255915,0.4293006505358038,0.343069192618208,0.920256888683576,-1.0170868925655545,3.1918382249377,1.5378423105542915,3.058589027435307,-11.022707121414955,-4.1881176074517725,15.000298830816021,0.213,0.15,0.0,0.0,0.0,0.0,0.0,0.0,0.0,0.213,-0.15,0.0,0.0,0.0,0.0,0.0,0.0,0.0,-0.11914335696817335,0.13916126156554964,0.024944436849971975,0.8988707485754158,-0.10380323198114477,-0.15289302770975197,32.90845894582385,-3.800328206998892,-16.32287166527647,-0.213,-0.15,0.0,0.0,0.0,0.0,0.0,0.0,0.0,6.950798923488605,10.27455272787509,-1.3178170943832583,10.432624864904085,1.1824830251373362,3.0518222072171994,0.0,0.0,0.0,7.407566695155016,-8.710719905509265,20.53505662527893,1,1,0,1
280001000,280000000,0.048887279419174624,-0.011043580754604109,0.20880751441862092,0.01629287875607571,0.006469143532200229,-0.01873944922151848,0.9996707084468734,0.4422531198923994,-0.14177636188838968,0.44690371229164305,0.21429760733217296,0.8566562764616288,-0.8301198340531829,2.805106056219079,2.2762739368860534,0.4620233237325806,-14.756356342260139,-8.524553946474814,22.405525572995636,0.213,0.15,0.0,0.0,0.0,0.0,0.0,0.0,0.0,0.213,-0.15,0.0,0.0,0.0,0.0,0.0,0.0,0.0,-0.10869657488963963,0.1379548481622263,0.022676577894077832,1.1717508316801708,-0.1353159159997126,-0.2929572730223554,21.667557675127114,-2.502208596714668,-11.68997739724419,-0.213,-0.15,0.0,0.0,0.0,0.0,0.0,0.0,0.0,9.514958745817353,12.71716070502859,-3.6229817170622596,6.547389494278207,1.682512365098761,4.880097896014533,0.0,0.0,0.0,3.758388799231037,-6.167870131760333,15.10634595143922,1,1,0,1
290001000,290000000,0.05344362038476427,-0.012335223482871511,0.21325637661266228,0.016909794025026854,0.010456550669920878,-0.022328261264907695,0.9995529841699262,0.4683705196109972,-0.11532146438787039,0.4385411170104554,0.04757737413582687,0.7497743860530156,-0.5688003099434211,2.418373887500458,3.0147055632178144,-2.1345423799701493,-18.598482596817618,-12.859372699949025,29.863052951496496,0.213,0.15,0.0,0.0,0.0,0.0,0.0,0.0,0.0,0.213,-0.15,0.0,0.0,0.0,0.0,0.0,0.0,0.0,-0.09608303704359315,0.1364982138992315,0.01923972119845927,1.3322219020779582,-0.15384740391543816,-0.386692575654636,10.426656404430371,-1.2040889864304436,-7.057083129211913,-0.213,-0.15,0.0,0.0,0.0,0.0,0.0,0.0,0.0,9.739991163907462,12.429206824684627,-3.8505439638760777,3.0351838155960422,2.228788420562955,6.599430057650167,0.0,0.0,0.0,0.6667981614885105,-4.009330927545137,10.332277945774587,1,1,0,1
300001000,300000000,0.05824179873910397,-0.013325395654817126,0.2174917845687066,0.01659540110035625,0.013805033695821773,-0.02442306053834891,0.999468622729556,0.4906205976424086,-0.08148225062403336,0.40421286469224005,-0.15771052407845557,0.5991299018921258,-0.23286349722354244,2.0316417187818367,3.7531371895495753,-4.731108083672876,-22.451162625598524,-17.296792208291098,37.318644242143954,0.213,0.15,0.0,0.0,0.0,0.0,0.0,0.0,0.0,0.213,-0.15,0.0,0.0,0.0,0.0,0.0,0.0,0.0,-0.08242683355710365,0.1349211707375937,0.015097156189919515,1.3802839597687786,-0.15939769572832152,-0.4340989356065938,-0.814244866266371,0.09403062385378114,-2.424188861179637,-0.213,-0.15,0.0,0.0,0.0,0.0,0.0,0.0,0.0,7.0181954335896535,8.768125162119986,-1.6721992344884598,-0.03443206582988978,2.8220867892659385,8.18090589335705,0.0,0.0,0.0,-1.9046590717970835,-2.2073689810324657,6.180148138848451,1,1,0,1
310001000,310000000,0.063231017185233,-0.013962240538676776,0.22130124813135413,0.015217194763028716,0.016349570387811697,-0.02477024478308165,0.9994436269770618,0.5053661299555103,-0.04685464986066952,0.3580688798309336,-0.3636459677407362,0.43816406104339356,0.10762613958414141,0.9174647429435452,3.1723829625043782,-4.4976888880291055,-18.70327371313663,-14.92905935177711,30.753979403291886,0.213,0.15,0.0,0.0,0.0,0.0,0.0,0.0,0.0,0.213,-0.15,0.0,0.0,0.0,0.0,0.0,0.0,0.0,-0.06885205455724079,0.1333535306383412,0.0107121722952618,1.315937004752631,-0.1519667914383626,-0.43517635287822876,-12.055146136963117,1.3921502341380059,2.208705406852644,-0.213,-0.15,0.0,0.0,0.0,0.0,0.0,0.0,0.0,0.7418708106936833,1.0913497926109699,3.2403570714370744,-2.591898044687241,3.463183068943732,9.595612604368256,0.0,0.0,0.0,-3.9934367543502605,-0.7342509803910988,2.61725206122422,1,1,0,1
320001000,320000000,0.0683119821056564,-0.014281847126285987,0.22466094280519872,0.012898342192597365,0.018147693398766217,-0.023584678187160632,0.9994738900780725,0.5089698925012793,-0.018034591373945773,0.3142590869316583,-0.5312646493976101,0.30010190008059084,0.381804904172815,-0.19671223378976332,2.5916287348403664,-4.2642696918259535,-14.801357538991974,-12.69615839530415,24.065624561600462,0.213,0.15,0.0,0.0,0.0,0.0,0.0,0.0,0.0,0.213,-0.15,0.0,0.0,0.0,0.0,0.0,0.0,0.0,-0.056482790171074236,0.13192510556250256,0.006548058941289344,1.1391810370295157,-0.13155469104556136,-0.38992482746954094,-23.296047407659856,2.6902698444222297,6.841599674884922,-0.213,-0.15,0.0,0.0,0.0,0.0,0.0,0.0,0.0,-6.535406610836164,-7.633948423023342,8.825992010101174,-4.56765401566372,4.152852857332354,10.814637391916847,0.0,0.0,0.0,-5.636988739895537,0.43775638621018254,-0.38911475653470107,1,1,0,1
330001000,330000000,0.0733732758027008,-0.014342290840411158,0.22759421050986073,0.009833239253168853,0.019309152692211812,-0.0212015970516056,0.9995403725265729,0.501431885279715,0.0049779248361378516,0.2727834859944145,-0.6594035413618438,0.18415150545140918,0.5886938466385705,-1.3108892105230723,2.0108745071763545,-4.030850495622801,-10.818059267408941,-10.490929110063645,17.303501017862228,0.213,0.15,0.0,0.0,0.0,0.0,0.0,0.0,0.0,0.213,-0.15,0.0,0.0,0.0,0.0,0.0,0.0,0.0,-0.046443130525673657,0.13076570747110614,0.0030681055548053802,0.8500160565994332,-0.0981613945499179,-0.29834435938053017,-34.536948678356595,3.9883894547064545,11.4744939429172,-0.213,-0.15,0.0,0.0,0.0,0.0,0.0,0.0,0.0,-11.894495679775497,-14.064398375977252,12.844478969897798,-5.892139873446922,4.891871752167831,11.80906745723587,0.0,0.0,0.0,-6.872768882157443,1.33638643060259,-2.8716567838648936,1,1,0,1
340001000,340000000,0.07830348057869292,-0.014201647103818696,0.23012439316496044,0.006221903658193254,0.019943279101658943,-0.0179586493989466,0.9996204481928664,0.48275210829081777,0.022182898769581356,0.23364207701920223,-0.7475465415514269,0.09046613266503431,0.7277631983297618,-2.425066187256381,1.4301202795123422,-3.797431299419649,-6.810508632996882,-8.231742038756012,10.507526778794395,0.213,0.15,0.0,0.0,0.0,0.0,0.0,0.0,0.0,0.213,-0.15,0.0,0.0,0.0,0.0,0.0,0.0,0.0,-0.039857165748108755,0.13000514832518034,0.000735601562613146,0.4484420634623829,-0.05178690195143221,-0.16043494861119667,-45.77784994905335,5.286509064990679,16.10738821094948,-0.213,-0.15,0.0,0.0,0.0,0.0,0.0,0.0,0.0,-15.539917008051052,-18.444508109634693,15.466341812975502,-6.495795512724669,5.68101535118618,12.549990001558427,0.0,0.0,0.0,-7.738231034860491,1.9893724646173472,-4.863078490202948,1,1,0,1
350001000,350000000,0.08299117873595939,-0.013917991339274998,0.23227483269011823,0.0022669267128847506,0.02016314380708284,-0.014194207904887679,0.9996933695574088,0.4529305615345875,0.0335803304263847,0.19683486000602154,-0.7956778282546243,0.01988324321073101,0.798832428527213,-3.539243163989686,0.8493660518483321,-3.5640121032164975,-2.821721562834859,-5.863472858090454,3.707633996389575,0.213,0.15,0.0,0.0,0.0,0.0,0.0,0.0,0.0,0.213,-0.15,0.0,0.0,0.0,0.0,0.0,0.0,0.0,-0.03781102803986482,0.12976885663574814,5.7900853036343325e-08,0.0,0.0,0.0,0.0,0.0,0.0,-0.213,-0.15,0.0,0.0,0.0,0.0,0.0,0.0,0.0,-17.67638012048755,-21.019002003676675,16.86224866238059,-6.316035950225775,6.521281644863034,13.010016122566476,0.0019184999999702222,-0.00225965141435012,0.0010113844534917831,-8.270829051729189,2.4244478000856597,-6.396084344985459,1,1,1,1
360001000,360000000,0.08732495257682689,-0.013549398969546472,0.2340688710049543,-0.001828864850258262,0.02008838667398934,-0.010246033453059245,0.9997440326266892,0.4119672450110241,0.03917021980654796,0.16236183495487228,-0.8041411502486897,-0.026341970367240133,0.801970451109244,-4.653420140722995,0.2686118241843203,-3.3305929070133455,1.1195212116352073,-3.3576753871286824,-3.0762192275961544,0.213,0.15,0.0,0.0,0.0,0.0,0.0,0.0,0.0,0.213,-0.15,0.0,0.0,0.0,0.0,0.0,0.0,0.0,-0.03781102803986482,0.12976885663574814,5.7900853036343325e-08,0.0,0.0,0.0,0.0,0.0,0.0,-0.213,-0.15,0.0,0.0,0.0,0.0,0.0,0.0,0.0,-18.508594541909694,-22.032604437784197,17.202867641159372,-5.916657064991269,7.43048937195917,13.303190949464913,0.17150790667036725,-0.20197048994446895,0.09056787882222818,-8.508016786488078,2.6693457488387597,-7.503378817649015,1,1,1,1
370001000,370000000,0.0911933844036221,-0.013153945417399508,0.2355298500290891,-0.005864018300522106,0.01984669154148245,-0.00645029776102512,0.9997650302861281,0.35986215872012756,0.038952566910071096,0.13022300186575458,-0.7734926394337176,-0.046801842601822956,0.7373959120774256,-5.767597117456303,-0.3121424034796916,-3.0971737108101935,4.999753572248031,-0.7122056855497815,-9.834044360669795,0.213,0.15,0.0,0.0,0.0,0.0,0.0,0.0,0.0,0.213,-0.15,0.0,0.0,0.0,0.0,0.0,0.0,0.0,-0.03781102803986482,0.12976885663574814,5.7900853036343325e-08,0.0,0.0,0.0,0.0,0.0,0.0,-0.213,-0.15,0.0,0.0,0.0,0.0,0.0,0.0,0.0,-18.241269797142223,-21.73003979163827,16.65886687235815,-5.678955800446817,8.410593272734287,13.518306249512653,0.5973780175944853,-0.7033512835925684,0.3160242606105926,-8.487248092861666,2.751799622707857,-8.217666377630206,1,1,1,1
380001000,380000000,0.09448505651867167,-0.012789706105600516,0.23668111168214284,-0.009639276651554573,0.019573920246349085,-0.0031410196545789614,0.9997570104717215,0.2966153026618979,0.03292737173695412,0.10041836073866836,-0.7043403976214526,-0.040196022150495114,0.6053774926809272,-6.881774094189613,-0.8928966311437034,-2.8637545146070416,8.822296388016884,2.0494525952788796,-16.565823310542587,0.213,0.15,0.0,0.0,0.0,0.0,0.0,0.0,0.0,0.213,-0.15,0.0,0.0,0.0,0.0,0.0,0.0,0.0,-0.03781102803986482,0.12976885663574814,5.7900853036343325e-08,0.0,0.0,0.0,0.0,0.0,0.0,-0.213,-0.15,0.0,0.0,0.0,0.0,0.0,0.0,0.0,-17.079115411009834,-20.356032444919883,15.400914479023228,-5.588524750938943,9.448956974777504,13.66057541081913,1.254003708810515,-1.4761680684022112,0.6646623354202563,-8.245976824574456,2.6995427335241615,-8.571651494365605,1,1,1,1
390001000,390000000,0.09708855122430228,-0.012514756456915892,0.23754599788373593,-0.012957537464456645,0.019412936569279327,-0.0006499889732193023,0.9997273716523666,0.22222667683633524,0.021094634287197017,0.0729479115736137,-0.5971697028466603,-0.005584174041054505,0.40613419041118565,-7.995951070922921,-1.4736508588077162,-2.6303353184038896,12.608570648868977,4.878880219423928,-23.2815114269847,0.213,0.15,0.0,0.0,0.0,0.0,0.0,0.0,0.0,0.213,-0.15,0.0,0.0,0.0,0.0,0.0,0.0,0.0,-0.03781102803986482,0.12976885663574814,5.7900853036343325e-08,0.0,0.0,0.0,0.0,0.0,0.0,-0.213,-0.15,0.0,0.0,0.0,0.0,0.0,0.0,0.0,-15.226840908337241,-18.155306777310063,13.59967858420091,-5.630956510814179,10.532944105677945,13.735211821493776,2.1158598563566464,-2.4901868804169593,1.123763908852891,-7.821656835351014,2.540308393118911,-8.598038637291848,1,1,1,1
400001000,400000000,0.0988924508228406,-0.012387171894112039,0.23814785055348855,-0.015622880532190101,0.019511155017963973,0.0006927545518166031,0.9996873313816039,0.13669628124343924,0.003454354560799733,0.04781165437059054,-0.4521581163515503,0.05736700305410785,0.13973557249258794,-9.11012804765623,-2.054405086471728,-2.396916122200737,16.398716297516735,7.703111190633439,-30.001039523873196,0.213,0.15,0.0,0.0,0.0,0.0,0.0,0.0,0.0,0.213,-0.15,0.0,0.0,0.0,0.0,0.0,0.0,0.0,-0.03781102803986482,0.12976885663574814,5.7900853036343325e-08,0.0,0.0,0.0,0.0,0.0,0.0,-0.213,-0.15,0.0,0.0,0.0,0.0,0.0,0.0,0.0,-12.889155813949213,-15.372587168489805,11.425827310937507,-5.7918436744190505,11.649918293024731,13.74742886964602,3.1574213362710704,-3.7151737556803752,1.6806107865101676,-7.2517419789157955,2.301829913323301,-8.329532275845452,1,1,1,1
410001000,410000000,0.09982263107644813,-0.012450193208708884,0.23851029856076267,-0.01747878818373216,0.019969708728887616,0.0006554928107371358,0.9996475744111456,0.05121215383749879,-0.015543078068294323,0.02509567404647528,-0.29191597672490477,0.1208226092785981,-0.13448409234033784,-7.9866974327649665,-1.7450814393470309,-2.146279943738003,15.656977518346341,4.96340281980897,-24.84936893455917,0.213,0.15,0.0,0.0,0.0,0.0,0.0,0.0,0.0,0.213,-0.15,0.0,0.0,0.0,0.0,0.0,0.0,0.0,-0.03781102803986482,0.12976885663574814,5.7900853036343325e-08,0.0,0.0,0.0,0.0,0.0,0.0,-0.213,-0.15,0.0,0.0,0.0,0.0,0.0,0.0,0.0,-10.270769652670388,-12.25259799814009,9.050028782279306,-6.056778836100089,12.787243164406986,13.702439943385297,4.353163024591976,-5.120894730236021,2.3224847739937577,-6.573686108993385,2.0118406059685583,-7.798836879463078,1,1,1,1
420001000,420000000,0.09995414158677919,-0.012687722667240433,0.23865811857366298,-0.018527026777153958,0.020696892678962017,-0.0006039960857044551,0.9996139370281721,-0.023037667411860134,-0.03144727422614084,0.004886055495830196,-0.1389622571639941,0.15621582637919967,-0.3573472485510428,-6.863266817106802,-1.4357577922222693,-1.895643766391009,14.93256513747676,2.0977957279384727,-19.726403741816764,0.213,0.15,0.0,0.0,0.0,0.0,0.0,0.0,0.0,0.213,-0.15,0.0,0.0,0.0,0.0,0.0,0.0,0.0,-0.03781102803986482,0.12976885663574814,5.7900853036343325e-08,0.0,0.0,0.0,0.0,0.0,0.0,-0.213,-0.15,0.0,0.0,0.0,0.0,0.0,0.0,0.0,-7.57639194932554,-9.040063645941977,6.642951121272645,-6.41135459020382,13.93228234741383,13.605458430821036,5.6775597973575564,-6.677115840127458,3.036667676905333,-5.824943079308255,1.6980737828858956,-7.038656917581282,1,1,1,1
430001000,430000000,0.09939932541539956,-0.013068827904994208,0.23861637420992415,-0.01880859467587149,0.02154716539016026,-0.002832095382528232,0.9995868824998215,-0.08605318250463738,-0.04425823391273974,-0.01281720128134494,0.006644677527039204,0.16249645799413645,-0.5290445652500141,-5.739836201448638,-1.1264341450975075,-1.6450075890440146,14.181434548972685,-0.852541013647681,-14.613230794169457,0.213,0.15,0.0,0.0,0.0,0.0,0.0,0.0,0.0,0.213,-0.15,0.0,0.0,0.0,0.0,0.0,0.0,0.0,-0.03781102803986482,0.12976885663574814,5.7900853036343325e-08,0.0,0.0,0.0,0.0,0.0,0.0,-0.213,-0.15,0.0,0.0,0.0,0.0,0.0,0.0,0.0,-5.010732228739364,-5.979708491576446,4.37526245096381,-6.841163531076773,15.072399469634382,13.461697720062672,7.105086530606002,-8.353603121398255,3.810441300846565,-5.042966743584934,1.388262755906549,-6.081696859636661,1,1,1,1
440001000,440000000,0.09827052562387503,-0.013562576557257736,0.23841012908728096,-0.01836558391695409,0.022370202562232936,-0.005776036922580658,0.9995643634915077,-0.13783439144083298,-0.053975957128091015,-0.028014096285050128,0.14447631448335993,0.13900894052495788,-0.649588499586612,-4.616405585790474,-0.8171104979727459,-1.3943714116970203,13.373769838425057,-3.8498090583380327,-9.493121236370126,0.213,0.15,0.0,0.0,0.0,0.0,0.0,0.0,0.0,0.213,-0.15,0.0,0.0,0.0,0.0,0.0,0.0,0.0,-0.03781102803986482,0.12976885663574814,5.7900853036343325e-08,0.0,0.0,0.0,0.0,0.0,0.0,-0.213,-0.15,0.0,0.0,0.0,0.0,0.0,0.0,0.0,-2.7785000157365687,-3.316256914724491,2.417630894399089,-7.331798253065477,16.194958158657766,13.27637119921963,8.610218100375498,-10.120122610091965,4.631087451419123,-4.265210955547943,1.1101408368616958,-4.960661175065752,1,1,1,1
450001000,450000000,0.09668008527377146,-0.014138036259318539,0.23806444682346808,-0.017242488985048973,0.02301311078890696,-0.009182838691544008,0.9995442805493827,-0.178381294220447,-0.06060044387219468,-0.04070462951528539,0.2738805219578274,0.08545893010660179,-0.7188351456126413,-3.492974970132307,-0.5077868508479835,-1.1437352343500253,12.494751282547261,-6.85960828436711,-4.3515311166976405,0.213,0.15,0.0,0.0,0.0,0.0,0.0,0.0,0.0,0.213,-0.15,0.0,0.0,0.0,0.0,0.0,0.0,0.0,-0.03781102803986482,0.12976885663574814,5.7900853036343325e-08,0.0,0.0,0.0,0.0,0.0,0.0,-0.213,-0.15,0.0,0.0,0.0,0.0,0.0,0.0,0.0,-1.0844048351419247,-1.2944332950671367,0.940724574624852,-7.868851350516459,17.2873220420731,13.054692256401347,10.167429382704242,-11.946440342252158,5.485887934224682,-3.529129568921803,0.8914413375825774,-3.7082543333052485,1,1,1,1
460001000,460000000,0.09474034742665469,-0.01476427464646414,0.23760439103622016,-0.015486763927068659,0.023322446510815845,-0.012798347650289095,0.9995261006743345,-0.20769389084347933,-0.06413169414505071,-0.05088880097205069,0.3941334282458668,0.001877375083136625,-0.7365060718367268,-2.369544354474143,-0.19846320372322168,-0.8930990570030308,11.544868127626193,-9.851376596603927,0.8239014871523326,0.213,0.15,0.0,0.0,0.0,0.0,0.0,0.0,0.0,0.213,-0.15,0.0,0.0,0.0,0.0,0.0,0.0,0.0,-0.03781102803986482,0.12976885663574814,5.7900853036343325e-08,0.0,0.0,0.0,0.0,0.0,0.0,-0.213,-0.15,0.0,0.0,0.0,0.0,0.0,0.0,0.0,-0.13315621178008996,-0.15896201228534323,0.11521161468733965,-8.43791541777625,18.336854747469516,12.801874279717248,11.751195253630414,-13.802322353922388,6.36212455486491,-2.8721764374310297,0.75989756990041,-2.3571808037916426,1,1,1,1
470001000,470000000,0.0925636551440905,-0.015410359353982063,0.23705502534327194,-0.013148611576962137,0.023146030581763212,-0.016366391996431865,0.9995116389992291,-0.22577218130993004,-0.06456970794665913,-0.058566610655346046,0.504592418294435,-0.11142096223047315,-0.7022101135855475,-1.2461137388159784,0.11086044340153967,-0.6424628796560365,10.539840530751917,-12.7990232221262,6.043362506810558,0.2136817127035494,0.1498546091274231,0.0004916693511840247,0.274436915731866,-0.05852996788533256,0.19744600616601787,53.2821012031267,-11.363630377554705,38.031064868053335,0.213,-0.15,0.0,0.0,0.0,0.0,0.0,0.0,0.0,-0.03781102803986482,0.12976885663574814,5.7900853036343325e-08,0.0,0.0,0.0,0.0,0.0,0.0,-0.213,-0.15,0.0,0.0,0.0,0.0,0.0,0.0,0.0,0.0,0.0,0.0,-9.024583049191374,19.33091990243613,12.52313065727677,13.335990589192217,-15.657534681146227,7.247079118941481,-2.331805414800172,0.7432428456464351,-0.9401450559615725,0,1,1,1
480001000,480000000,0.0902623514876447,-0.01604535801715983,0.23644141336235813,-0.010280006929334503,0.022334542198743666,-0.01962803577392341,0.9995049924307347,-0.23261616561979898,-0.061914485277019926,-0.06373805856517142,0.6048466934821095,-0.25388535985426053,-0.6154650944046093,-0.12268312315781493,0.42018409052630146,-0.39182670230904204,9.510223385149802,-15.681534108879477,11.314869685718277,0.21889142287473595,0.148743518922214,0.004203985380038035,0.7476287138765935,-0.15944897390428964,0.5286474719838998,41.356258425818694,-8.82017082623669,28.209228295522987,0.213,-0.15,0.0,0.0,0.0,0.0,0.0,0.0,0.0,-0.03781102803986482,0.12976885663574814,5.7900853036343325e-08,0.0,0.0,0.0,0.0,0.0,0.0,-0.213,-0.15,0.0,0.0,0.0,0.0,0.0,0.0,0.0,0.0,0.0,0.0,-9.61444683910836,20.256881134562054,12.223674777189347,14.896290265427838,-17.481843359967232,8.128033432056064,-1.9454703547537378,0.8692104766518369,0.5101484407483099,0,1,1,1
490001000,490000000,0.08794877951888311,-0.016638338271284973,0.23578861871121343,-0.006932972172957058,0.020742878557857673,-0.02232092640623401,0.999511602299018,-0.2282258437730862,-0.056166026136133085,-0.06640314470152685,0.6948626282006274,-0.4247820096393777,-0.4757194720842017,1.0007474925003486,0.7295077376510632,-0.14119052496204798,8.500776973999997,-18.483335856588127,16.64427922546423,0.22823675888850437,0.14675041163438124,0.010737224238444351,1.1015620842482408,-0.23493338441006656,0.7616305720764781,29.4304156485107,-6.276711274918679,18.387391722992636,0.213,-0.15,0.0,0.0,0.0,0.0,0.0,0.0,0.0,-0.03781102803986482,0.12976885663574814,5.7900853036343325e-08,0.0,0.0,0.0,0.0,0.0,0.0,-0.213,-0.15,0.0,0.0,0.0,0.0,0.0,0.0,0.0,0.0,0.0,0.0,-10.19309938187374,21.102102071436423,11.908720027564401,16.40656915837546,-19.245014426428966,8.992269299810333,-1.750625111016177,1.1655337747478214,1.960995216901594,0,1,1,1
500001000,500000000,0.08573528229937157,-0.017158367751645004,0.2351217050075725,-0.003157133416445511,0.018231278252502616,-0.02417873254465566,0.9995364134909767,-0.21260121576979196,-0.04732433052399865,-0.06656186906441242,0.7751220582593501,-0.6232484881498209,-0.28237394249789505,2.124178108158514,1.038831384775825,0.10944565238494652,7.569698835576105,-21.19421969321973,22.03528666999319,0.24052513646712378,0.1441296332190566,0.01910920226914988,1.3362370268468071,-0.28498319940266315,0.8963953064437523,17.504572871202768,-3.733251723600679,8.565555150462338,0.213,-0.15,0.0,0.0,0.0,0.0,0.0,0.0,0.0,-0.03781102803986482,0.12976885663574814,5.7900853036343325e-08,0.0,0.0,0.0,0.0,0.0,0.0,-0.213,-0.15,0.0,0.0,0.0,0.0,0.0,0.0,0.0,0.0,0.0,0.0,-10.746133271834035,21.85394634064835,11.583479796511375,17.841302144073275,-20.916813916574984,9.827068527805952,-1.7847235373120895,1.659946051765644,3.379690803061493,0,1,1,1
510001000,510000000,0.08371759124078391,-0.017581845699761085,0.23446524861023588,0.0009762109313139145,0.014728940550289912,-0.025002287434839652,0.9995784066022582,-0.19072577650441566,-0.03758888028629471,-0.06436040933488334,0.8306321017564317,-0.810379194583782,-0.07761811446198039,2.2509097595348853,0.9082586676472066,0.3308462933622813,3.549361105217921,-16.22789476943732,18.900670188986563,0.25456397133286357,0.1411355296313719,0.02833773581490169,1.4516535416722947,-0.3095984188820799,0.932941675085724,5.5787300938947695,-1.189792172282667,-1.2562814220680139,0.213,-0.15,0.0,0.0,0.0,0.0,0.0,0.0,0.0,-0.03781102803986482,0.12976885663574814,5.7900853036343325e-08,0.0,0.0,0.0,0.0,0.0,0.0,-0.213,-0.15,0.0,0.0,0.0,0.0,0.0,0.0,0.0,0.0,0.0,0.0,-11.25914110333578,22.499777569786968,11.25316747213969,19.174964098559478,-22.46700786644886,10.619712921644608,-2.0199961447780037,2.311064078490114,4.70237654167997,0,1,1,1
520001000,520000000,0.08192499115814973,-0.017914497781112444,0.23384187684223545,0.005293420847231378,0.010420293323204134,-0.02487749454164398,0.9996221823509736,-0.1675830205790943,-0.029159157171054474,-0.05994494319716679,0.8463156238649095,-0.9478135833048648,0.0952455485448305,2.3776414255293807,0.7776859554008382,0.5522469341810253,-0.4084031839380109,-11.263239339078046,15.648546006298542,0.26916067920799275,0.13802244682645895,0.0374406412184467,1.4478116287247023,-0.3087790428483165,0.8712696780023919,-6.347112683413222,1.353667379035345,-11.078117994598365,0.213,-0.15,0.0,0.0,0.0,0.0,0.0,0.0,0.0,-0.03781102803986482,0.12976885663574814,5.7900853036343325e-08,0.0,0.0,0.0,0.0,0.0,0.0,-0.213,-0.15,0.0,0.0,0.0,0.0,0.0,0.0,0.0,0.0,0.0,0.0,-11.717715470725508,23.026959386441384,10.92299644255878,20.38202989787227,-23.865362312094156,11.357484286927956,-2.222896448966082,2.8662795303136095,5.794873954383481,0,1,1,1
530001000,530000000,0.0803701552180685,-0.018169381266923718,0.23327372976765315,0.009595739664481519,0.0055516251524898785,-0.023967486758790305,0.9996512696020172,-0.143172947993828,-0.022035161178277925,-0.05331547065126282,0.8224479229892937,-1.0357928289543317,0.23482608419001358,2.504373091523876,0.6471132431544697,0.7736475749997693,-4.370341153032097,-6.34277559496,12.239074129198467,0.2831226758147807,0.1350447307594495,0.04543573482253187,1.3247112880040297,-0.28252507130137294,0.7113793151937564,-18.272955460721228,3.897126930353357,-20.899954567128717,0.213,-0.15,0.0,0.0,0.0,0.0,0.0,0.0,0.0,-0.03781102803986482,0.12976885663574814,5.7900853036343325e-08,0.0,0.0,0.0,0.0,0.0,0.0,-0.213,-0.15,0.0,0.0,0.0,0.0,0.0,0.0,0.0,0.0,0.0,0.0,-12.107448968349736,23.422855418200733,10.59818009587808,21.43697441804982,-25.08164328955444,12.027664429257676,-2.372063460948833,3.3063787810063006,6.659320069715302,0,1,1,1
540001000,540000000,0.07906575658713966,-0.018359553428419544,0.2327829474505708,0.013683087139783438,0.00036592001733835183,-0.022443583206465605,0.9996544026821071,-0.11749555874861674,-0.016216892307965067,-0.0444719916971714,0.7587360495390862,-1.0749131346687875,0.3394343718188036,2.631104757518372,0.5165405309081014,0.9950482158185134,-8.383483817052367,-1.4950659803844297,8.652475405088651,0.29525737687549647,0.13245672738547543,0.05134083296990416,1.0823525195102777,-0.23083650424124924,0.45327058665981745,-30.19879823802922,6.440586481671373,-30.721791139659068,0.213,-0.15,0.0,0.0,0.0,0.0,0.0,0.0,0.0,-0.03781102803986482,0.12976885663574814,5.7900853036343325e-08,0.0,0.0,0.0,0.0,0.0,0.0,-0.213,-0.15,0.0,0.0,0.0,0.0,0.0,0.0,0.0,0.0,0.0,0.0,-12.413934190555,23.67482929265413,10.28393182020702,22.31427253513033,-26.08561683487325,12.617535154235437,-2.4714236748724083,3.639340050247303,7.311546844340591,0,1,1,1
550001000,550000000,0.07802446843196265,-0.018498071536824565,0.23239166995507035,0.017351884166430923,-0.004898463334378143,-0.02048602394921438,0.9996275506385309,-0.09055085284346043,-0.011704350560115883,-0.0334145063348925,0.6545107779775778,-1.065987487687821,0.40728407617924767,2.757836423512868,0.38596781866173246,1.216448856637258,-12.476304023186744,3.2651089232342616,4.8890934454821435,0.30437219811240934,0.13051278265966845,0.05417375200331054,0.7207353232434448,-0.15371334166794526,0.09694349240057454,-42.124641015337225,8.984046032989385,-40.54362771218941,0.213,-0.15,0.0,0.0,0.0,0.0,0.0,0.0,0.0,-0.03781102803986482,0.12976885663574814,5.7900853036343325e-08,0.0,0.0,0.0,0.0,0.0,0.0,-0.213,-0.15,0.0,0.0,0.0,0.0,0.0,0.0,0.0,0.0,0.0,0.0,-12.622763731687826,23.770244637390697,9.985465003655023,22.988399125151986,-26.847048984094172,13.114378267462914,-2.524903584882963,3.87314155771573,7.767386234924506,0,1,1,1
560001000,560000000,0.07725896391913692,-0.01859799286336341,0.2321220373452336,0.020393750437446914,-0.010008411657116969,-0.018283595951451785,0.9995747279509826,-0.06233883027835925,-0.00849753593473039,-0.020143014564426187,0.5089040516679313,-1.0099068373617246,0.43669301084982814,2.884568089507364,0.255395106415364,1.437849497456002,-16.660398352780753,7.9370023209928355,0.9694128561438629,0.3119189047847641,0.1289032743357311,0.05310028970944504,0.9289932149646025,-0.198129114864994,-0.29975464562393944,35.745701619582945,-7.623590917033063,-35.2900937126099,0.213,-0.15,0.0,0.0,0.0,0.0,0.0,0.0,0.0,-0.03781102803986482,0.12976885663574814,5.7900853036343325e-08,0.0,0.0,0.0,0.0,0.0,0.0,-0.213,-0.15,0.0,0.0,0.0,0.0,0.0,0.0,0.0,0.0,0.0,0.0,-12.719530186094733,23.696465079999548,9.70799303433154,23.433829064152988,-27.33570577326077,13.505475574541776,-2.5364296851266506,4.015761523090697,8.042670198132205,0,1,1,1
570001000,570000000,0.07678191621526194,-0.018672374679260723,0.23199618968514246,0.022594999831903342,-0.014735904368669415,-0.01603220407226002,0.9995075225017664,-0.03285949105331311,-0.006596448431808601,-0.004657516385772421,0.3210086315151659,-0.9074975764005814,0.42628441047196175,3.0112997555018595,0.12482239416899554,1.6592501382747462,-20.93229838889038,12.53435438284971,-3.065976942319809,0.32279735797019454,0.12658319463371845,0.04850193587390117,1.2268210176020258,-0.26164772628863114,-0.6035463908522317,23.819858907901665,-5.080131367694356,-25.468255333048504,0.213,-0.15,0.0,0.0,0.0,0.0,0.0,0.0,0.0,-0.03781102803986482,0.12976885663574814,5.7900853036343325e-08,0.0,0.0,0.0,0.0,0.0,0.0,-0.213,-0.15,0.0,0.0,0.0,0.0,0.0,0.0,0.0,0.0,0.0,0.0,-12.689826148122268,23.440854248069833,9.456729300345982,23.625037228171507,-27.52135323841656,13.778108881073685,-2.5099284697496262,4.0751781660513196,8.153230690628844,0,1,1,1
580001000,580000000,0.07660599848693714,-0.01873427425574113,0.23203626703887878,0.023736860265578724,-0.01885701702652142,-0.01393245116164691,0.9994432756180924,-0.0021128351683220095,-0.006001088051350474,0.01304198820106877,0.09002064673670204,-0.759374249526228,0.37518761839385834,3.138031421496355,-0.005750318077372807,1.88065077909349,-25.275011951287535,17.085868503044406,-7.15645806849643,0.3360577970464152,0.1237551017949364,0.041356756505052446,1.405390393122636,-0.2997317422188812,-0.80911975228491,11.894016196220377,-2.536671818355649,-15.646416953487101,0.213,-0.15,0.0,0.0,0.0,0.0,0.0,0.0,0.0,-0.03781102803986482,0.12976885663574814,5.7900853036343325e-08,0.0,0.0,0.0,0.0,0.0,0.0,-0.213,-0.15,0.0,0.0,0.0,0.0,0.0,0.0,0.0,0.0,0.0,0.0,-12.519244212116945,22.990775769190638,9.236887189807794,23.53649849324576,-27.37375741560517,13.919559992660332,-2.449326432898043,4.059369706276711,8.11489966907958,0,1,1,1
590001000,590000000,0.07674388390076198,-0.018796748864029277,0.23226440947052446,0.0235963652294761,-0.022150031093467068,-0.01218628432222452,0.9994018621880457,0.02990113737661404,-0.006711454793356046,0.0329554991960974,-0.18463023085931873,-0.5657879248123526,0.28323795289217973,3.2647630874908504,-0.13632303032374127,2.102051419912234,-29.65888927535857,21.635585550041057,-11.221464714275285,0.3505076377422579,0.12067334177431878,0.03264693544085501,1.4647013415264336,-0.3123811626557442,-0.9164747299219741,-0.031826515460906535,0.006787730983058182,-5.824578573925699,0.213,-0.15,0.0,0.0,0.0,0.0,0.0,0.0,0.0,-0.03781102803986482,0.12976885663574814,5.7900853036343325e-08,0.0,0.0,0.0,0.0,0.0,0.0,-0.213,-0.15,0.0,0.0,0.0,0.0,0.0,0.0,0.0,0.0,0.0,0.0,-12.193376972425305,22.3335932709511,9.053680090826395,23.142687735413922,-26.862684340870132,13.917110714903377,-2.3585500687180554,3.976314363445988,7.943509090149573,0,1,1,1
600001000,600000000,0.07720824562333592,-0.018872855775349796,0.23270275704416135,0.02194790458237338,-0.024392637408761356,-0.010992738819626162,0.999401044835321,0.06318242658149506,-0.00872754865782531,0.055083016599313486,-0.5031541972423791,-0.3264717043715729,0.15117594584470592,3.3914947534853463,-0.26689574257010973,2.323452060730978,-34.0414054846413,26.24306889094972,-15.16051989030318,0.36495429578655453,0.11759226052679947,0.02335465651926499,1.4047538628134182,-0.29959598759922007,-0.9256113237634243,-11.957669227142183,2.5502472803217646,3.9972598056357,0.213,-0.15,0.0,0.0,0.0,0.0,0.0,0.0,0.0,-0.03781102803986482,0.12976885663574814,5.7900853036343325e-08,0.0,0.0,0.0,0.0,0.0,0.0,-0.213,-0.15,0.0,0.0,0.0,0.0,0.0,0.0,0.0,0.0,0.0,0.0,-11.69781702339386,21.456670380940345,8.91232139151123,22.41807983071419,-25.95790005025502,13.758042853404483,-2.241525871355818,3.8339903572382643,7.654890910503978,0,1,1,1
610001000,610000000,0.07800191291211458,-0.01896866676090807,0.2333604990519715,0.018667222642225232,-0.025419473371299732,-0.010494352807986518,0.9994474742233795,0.09477785975053596,-0.009953719587747338,0.07553930884408741,-0.8053357228748854,-0.07848726073043727,0.010624855124099851,2.9275918897925326,0.021661566832399337,1.7678063888876807,-26.37948910476115,23.374890754927122,-12.907003543809449,0.378205186908137,0.11476620400731233,0.014462103578238551,1.2255479569835896,-0.2613762170493088,-0.8365295338092598,-23.883511938823467,5.093706829660471,13.819098185197099,0.213,-0.15,0.0,0.0,0.0,0.0,0.0,0.0,0.0,-0.03781102803986482,0.12976885663574814,5.7900853036343325e-08,0.0,0.0,0.0,0.0,0.0,0.0,-0.213,-0.15,0.0,0.0,0.0,0.0,0.0,0.0,0.0,0.0,0.0,0.0,-11.018156959369144,20.347370726747485,8.818024479971724,21.337149655184717,-24.629170579803343,13.42963821376533,-2.1021803349574837,3.640375907332654,7.2648770868079495,0,1,1,1
620001000,620000000,0.07908833938987253,-0.019062311589783106,0.23419502169867046,0.014039662024209526,-0.02530337436285878,-0.010628432486491871,0.9995247188333959,0.12173426437734586,-0.008294317321177328,0.09043914437706714,-1.0304876623946637,0.14132180419610896,-0.10634403111082008,2.463689035569444,0.3102188864816023,1.212160717708266,-18.640440606037842,20.59588032471688,-10.466750847299775,0.389067726835837,0.11244951817079124,0.00695146045573182,0.927083624036948,-0.19772185100601036,-0.6492293600594814,-35.80935465050475,7.637166378999179,23.640936564758505,0.213,-0.15,0.0,0.0,0.0,0.0,0.0,0.0,0.0,-0.03781102803986482,0.12976885663574814,5.7900853036343325e-08,0.0,0.0,0.0,0.0,0.0,0.0,-0.213,-0.15,0.0,0.0,0.0,0.0,0.0,0.0,0.0,0.0,0.0,0.0,-10.139989374697691,18.99305793596165,8.776002744317303,19.87437208486375,-22.846261965558753,12.919178601587596,-1.9444399536692083,3.4034492334082738,6.789299575726648,0,1,1,1
630001000,630000000,0.08042113477118741,-0.019124934530009977,0.23515076041714023,0.008456178502024106,-0.02417451541383304,-0.011276011213446482,0.9996083920319809,0.14405164046192487,-0.003749341858115287,0.09978252319825273,-1.1779770543324573,0.3335069381111008,-0.1985081653093584,1.999786181346355,0.5987762061308053,0.6565150465288514,-10.851010002378914,17.84031769005559,-7.9651953271858895,0.39634933129848654,0.11089654897217006,0.001804910989700953,0.5093608639734937,-0.10863288946932492,-0.3637108025140887,-47.735197362186035,10.180625928337886,33.462774944319904,0.213,-0.15,0.0,0.0,0.0,0.0,0.0,0.0,0.0,-0.03781102803986482,0.12976885663574814,5.7900853036343325e-08,0.0,0.0,0.0,0.0,0.0,0.0,-0.213,-0.15,0.0,0.0,0.0,0.0,0.0,0.0,0.0,0.0,0.0,0.0,-9.048906863726032,17.381095636171963,8.791469572657405,18.004221995789464,-20.578940243564745,12.213945822472951,-1.7722312216371434,3.1311885551442353,6.243990333925235,0,1,1,1
640001000,640000000,0.08195390877063694,-0.01912767984962377,0.23617215064026287,0.002310464785589912,-0.022162746282931047,-0.012315901507476024,0.9996758439612968,0.161729988004273,0.0036812068014387862,0.1035694453076442,-1.2474150493367007,0.4980326286780536,-0.2657936349746561,1.5358833271232664,0.8873335257800081,0.10086937534943674,-3.033652577291136,15.056573208122765,-5.5066475621380455,0.3988638293560696,0.11036027457638649,-9.987868262639325e-09,0.0,0.0,0.0,0.0,0.0,0.0,0.213,-0.15,0.0,0.0,0.0,0.0,0.0,0.0,0.0,-0.03781102803986482,0.12976885663574814,5.7900853036343325e-08,0.0,0.0,0.0,0.0,0.0,0.0,-0.213,-0.15,0.0,0.0,0.0,0.0,0.0,0.0,0.0,-0.00018726616723630806,-3.035759288238946e-05,8.608709680652921e-05,-7.730502020800692,15.498847454967539,8.869638353101461,15.70117426400003,-17.796971449864913,11.301221682023048,-1.5894806330074456,2.8315720922196577,5.644781318068859,1,1,1,1
650001000,650000000,0.08364027110279879,-0.01904169181665956,0.23720362780092047,-0.004002347732431535,-0.019400199451149177,-0.013629355848057674,0.9997108852728629,0.17476930700439025,0.013997328657484927,0.10179991070524147,-1.2386233597042045,0.6344184281079196,-0.3090643448188971,1.0719804729001763,1.175890845429212,-0.45477629582997947,4.7917929325638315,12.207318117323862,-3.174367109459183,0.3988638293560696,0.11036027457638649,-9.987868262639325e-09,0.0,0.0,0.0,0.0,0.0,0.0,0.213,-0.15,0.0,0.0,0.0,0.0,0.0,0.0,0.0,-0.03781102803986482,0.12976885663574814,5.7900853036343325e-08,0.0,0.0,0.0,0.0,0.0,0.0,-0.213,-0.15,0.0,0.0,0.0,0.0,0.0,0.0,0.0,-0.09192189096503149,-0.014901985027117625,0.04225875177641015,-6.17036744026818,13.333677019937504,9.015722473758903,12.93970376553365,-14.470121620502795,10.168287985839584,-1.4001146819262678,2.5125780643136544,5.007504484822686,1,1,1,1
660001000,660000000,0.08543383148225064,-0.018838114699152426,0.23818962733199503,-0.010086910527076942,-0.016022984396894223,-0.015103738311438247,0.9997066546222723,0.18316959746227662,0.02719902371002307,0.09447391939104462,-1.1516118430613687,0.7418827185341706,-0.3299116052439126,0.6080776186770875,1.464448165078415,-1.010421967009394,12.607516901718087,9.269665540356574,-1.0305725278093054,0.3988638293560696,0.11036027457638649,-9.987868262639325e-09,0.0,0.0,0.0,0.0,0.0,0.0,0.213,-0.15,0.0,0.0,0.0,0.0,0.0,0.0,0.0,-0.03781102803986482,0.12976885663574814,5.7900853036343325e-08,0.0,0.0,0.0,0.0,0.0,0.0,-0.213,-0.15,0.0,0.0,0.0,0.0,0.0,0.0,0.0,-0.3405076371524954,-0.055203968871100344,0.15654700898420099,-4.354095716475044,10.87294795867097,9.234935322739165,9.694285376428496,-10.568156791521972,8.802426539524198,-1.208059862539765,2.182184691105337,4.347991790851864,1,1,1,1
